"관리기관명",소재지도로명주소,소재지지번주소,설치목적구분,카메라대수,카메라화소수,촬영방면정보,보관일수,설치년월,관리기관전화번호,위도,경도,데이터기준일자
"부산광역시 재난현장관리단",부산광역시 해운대구 해운대해변로 84,부산광역시 해운대구 우동 1393,재난재해,1,200,100m이내,30,2017-12,051-888-3072,35.160915,129.1405557,2019-10-31
"부산광역시 재난현장관리단",부산광역시 해운대구 청사포로128번길 18(중동),부산광역시 해운대구 중동 591-9,재난재해,1,200,100m이내,30,2016-11,051-888-3072,35.16066488,129.1915227,2019-10-31
"부산광역시 재난현장관리단",부산광역시 해운대구 청사포로128번길 18(중동),부산광역시 해운대구 중동 591-9,재난재해,1,200,100m이내,30,2016-11,051-888-3072,35.16066488,129.1915227,2019-10-31
"부산광역시 재난현장관리단",부산광역시 해운대구 청사포로128번길 18(중동),부산광역시 해운대구 중동 591-11,재난재해,1,200,100m이내,30,2017-12,051-888-3072,35.16066488,129.1915227,2019-10-31
"부산광역시 재난현장관리단",부산광역시 해운대구 청사포로128번길 18(중동),부산광역시 해운대구 중동 591-17,재난재해,1,200,100m이내,30,2017-12,051-888-3072,35.16066488,129.1915227,2019-10-31
"부산광역시 재난현장관리단",부산광역시 해운대구 우동2로14번길 6-2(우동),부산광역시 해운대구 우동 1447,재난재해,1,200,100m이내,30,2017-12,051-888-3072,35.1660598,129.1610987,2019-10-31
"부산광역시 재난현장관리단",,부산광역시 해운대구 반여동 산4-20,재난재해,1,200,100m이내,30,2015-12,051-888-3072,35.235020,129.089000,2019-10-31
"부산광역시 재난현장관리단",부산광역시 중구 중구로 120,부산광역시 중구 대청동1가 1-4,재난재해,1,200,100m이내,30,2017-12,051-888-3072,35.10622698,129.0323731,2019-10-31
"부산광역시 재난현장관리단",부산광역시 영도구 해양로 259(동삼동),부산광역시 영도구 동삼동 175-2 하수처리장 옥상,재난재해,1,200,100m이내,30,2017-12,051-888-3072,35.08505207,129.077924,2019-10-31
"부산광역시 재난현장관리단",부산광역시 영도구 태종로 423,부산광역시 영도구 청학동 48-3,재난재해,1,200,100m이내,30,2017-12,051-888-3072,35.0912179,129.0679102,2019-10-31
"부산광역시 재난현장관리단",부산광역시 영도구 절영로 180-1(영선동4가),부산광역시 영도구 영선동4가 186-106,재난재해,1,200,100m이내,30,2017-12,051-888-3072,35.0729558,129.0630068,2019-10-31
"부산광역시 재난현장관리단",부산광역시 영도구 절영로 180-1(영선동4가),부산광역시 영도구 영선동4가 186-106,재난재해,1,200,100m이내,30,2017-12,051-888-3072,35.0729558,129.0630068,2019-10-31
"부산광역시 재난현장관리단",,부산광역시 영도구 동삼동 1-12 해양대학교 안,재난재해,1,200,100m이내,30,2015-12,051-888-3072,35.07963333,129.0958361,2019-10-31
"부산광역시 재난현장관리단",,부산광역시 영도구 청학동 131-2,재난재해,1,200,100m이내,30,2015-12,051-888-3072,35.093233,129.061344,2019-10-31
"부산광역시 재난현장관리단",,부산광역시 영도구 동삼2동 산191-1 공중화장실 옆,재난재해,1,200,100m이내,30,2017-12,051-888-3072,35.250278,129.056000,2019-10-31
"부산광역시 재난현장관리단",부산광역시 영도구 태종로 727,부산광역시 영도구 동삼동 1,재난재해,1,200,100m이내,30,2015-12,051-888-3072,35.07440777,129.0873486,2019-10-31
"부산광역시 재난현장관리단",부산광역시 영도구 해양로 207,부산광역시 영도구 동삼동 201-10,재난재해,1,200,100m이내,30,2015-12,051-888-3072,35.0882968,129.073422,2019-10-31
"부산광역시 재난현장관리단",부산광역시 영도구 해양로 128,부산광역시 영도구 청학동 1-74,재난재해,1,200,100m이내,30,2015-12,051-888-3072,35.093546,129.0674828,2019-10-31
"부산광역시 재난현장관리단",부산광역시 수영구 황령대로481번길 60-3,부산광역시 남구 남천2동 1 남천해변공원 하수펌프장 옆,재난재해,1,200,100m이내,30,2017-12,051-888-3072,35.14044206,129.109575,2019-10-31
"부산광역시 재난현장관리단",부산광역시 수영구 광안해변로54번길 222(남천동),부산광역시 수영구 남천동 148-14,재난재해,1,200,100m이내,30,2016-11,051-888-3072,35.14614518,129.1153264,2019-10-31
"부산광역시 재난현장관리단",부산광역시 수영구 광남로48번길 5(남천동),부산광역시 수영구 남천동 563,재난재해,1,200,100m이내,30,2016-11,051-888-3072,35.1467994,129.1123327,2019-10-31
"부산광역시 재난현장관리단",부산광역시 수영구 광남로48번길 5(남천동),부산광역시 수영구 남천동 563,재난재해,1,200,100m이내,30,2016-11,051-888-3072,35.1467994,129.1123327,2019-10-31
"부산광역시 재난현장관리단",,부산광역시 서구 암남동 626-38 동원냉장 앞 사면지대,재난재해,1,200,100m이내,30,2017-12,051-888-3072,35.066758,129.011300,2019-10-31
"부산광역시 재난현장관리단",부산광역시 서구 암남로94번길 83(암남동),부산광역시 서구 암남동 123-30 어촌회관 옥상,재난재해,1,200,100m이내,30,2017-12,051-888-3072,35.07387612,129.0126283,2019-10-31
"부산광역시 재난현장관리단",부산광역시 서구 암남공원로14번길 35-5(암남동),부산광역시 서구 암남동 696 항만관리소 현장사무실 옥상,재난재해,1,200,100m이내,30,2015-12,051-888-3072,35.07522462,129.0139111,2019-10-31
"부산광역시 재난현장관리단",부산광역시 서구 암남공원로 179-22(암남동),부산광역시 서구 암남동 암남공원 620-27 암남공원 테니스장 인근,재난재해,1,200,100m이내,30,2015-12,051-888-3072,35.06253639,129.020386,2019-10-31
"부산광역시 재난현장관리단",부산광역시 서구 꽃마을로163번길 233-109(서대신동3가),부산광역시 서구 서대신동 3가 산18-7,재난재해,1,200,100m이내,30,2017-12,051-888-3072,35.12234482,128.9998027,2019-10-31
"부산광역시 재난현장관리단",부산광역시 사하구 하신중앙로 236-1(하단동),부산광역시 사하구 하단동 870-312,재난재해,1,200,100m이내,30,2015-12,051-888-3072,35.09970872,128.9615505,2019-10-31
"부산광역시 재난현장관리단",부산광역시 사하구 을숙도대로 466(신평동),부산광역시 사하구 신평2동 659-2 강변사업소 탈수기동 옥상,재난재해,1,200,100m이내,30,2017-12,051-888-3072,35.08334392,128.9565934,2019-10-31
"부산광역시 재난현장관리단",부산광역시 사하구 원양로356번길 6(감천동),부산광역시 사하구 감천동 224 회센터 앞,재난재해,1,200,100m이내,30,2012-08,051-888-3072,35.08222408,129.0065757,2019-10-31
"부산광역시 재난현장관리단",부산광역시 사하구 몰운대1길 52(다대동),부산광역시 사하구 다대동 482 다대임해봉사센터 옥상,재난재해,1,200,100m이내,30,2015-12,051-888-3072,35.0452132,128.9690304,2019-10-31
"부산광역시 재난현장관리단",부산광역시 사하구 다대동로 30,부산광역시 사하구 다대동 820-2 다대수협 폐수처리장 옥상,재난재해,1,200,100m이내,30,2017-12,051-888-3072,35.05636449,128.9720293,2019-10-31
"부산광역시 재난현장관리단",부산광역시 사하구 낙동남로 1361,부산광역시 사하구 하단동 870-89 곽요양병원 옆 골목 입구,재난재해,1,200,100m이내,30,2015-12,051-888-3072,35.10651714,128.9607179,2019-10-31
"부산광역시 재난현장관리단",부산광역시 사하구 괴정로232번길 20(괴정동),부산광역시 사하구 괴정동 555-42 골목사거리 미장원 앞(비디오서버),재난재해,1,200,100m이내,30,2012-08,051-888-3072,35.09598712,128.9864167,2019-10-31
"부산광역시 재난현장관리단",부산광역시 사하구 감천항로405번길 24(구평동),부산광역시 사하구 구평동 496-1 감천항 서방파제 입구,재난재해,1,200,100m이내,30,2017-12,051-888-3072,35.05601136,128.9966929,2019-10-31
"부산광역시 재난현장관리단",부산광역시 사하구 감천항로 455(구평동),부산광역시 사하구 구평동 481-1,재난재해,1,200,100m이내,30,2015-12,051-888-3072,35.0533339,128.995545,2019-10-31
"부산광역시 재난현장관리단",부산광역시 사하구 감천항로 399(구평동),부산광역시 사하구 구평동 472-4 일원,재난재해,1,200,100m이내,30,2015-12,051-888-3072,35.05815772,128.995943,2019-10-31
"부산광역시 재난현장관리단",부산광역시 사하구 몰운대1길 14,부산광역시 사하구 다대동 1674,재난재해,1,200,100m이내,30,2017-12,051-888-3072,35.04724819,128.9669139,2019-10-31
"부산광역시 재난현장관리단",부산광역시 사상구 운산로15,부산광역시 사상구 삼락동 418-20,재난재해,1,200,100m이내,30,2015-12,051-888-3072,35.16963012,128.9788087,2019-10-31
"부산광역시 재난현장관리단",부산광역시 사상구 대동로 155(학장동),부산광역시 사상구 학장동 611 하천변 (학장천),재난재해,1,200,100m이내,30,2017-12,051-888-3072,35.14140102,128.9834745,2019-10-31
"부산광역시 재난현장관리단",부산광역시 사상구 강변대로532번길 71(감전동),부산광역시 사상구 감전동 516 엄궁 배수펌프장 1.,재난재해,1,200,100m이내,30,2017-12,051-888-3072,35.13213608,128.9698271,2019-10-31
"부산광역시 재난현장관리단",부산광역시 사상구 강변대로532번길 71(감전동),부산광역시 사상구 감전동 516 엄궁 배수펌프장 2.,재난재해,1,200,100m이내,30,2017-12,051-888-3072,35.13213608,128.9698271,2019-10-31
"부산광역시 재난현장관리단",부산광역시 북구 시랑로24번가길 11(구포동),부산광역시 북구 구포2동 1054 구포대교 밑,재난재해,1,200,100m이내,30,2017-12,051-888-3072,35.20298127,129.0039741,2019-10-31
"부산광역시 재난현장관리단",부산광역시 북구 대천천길 65,부산광역시 북구 화명동 256 화명초등학교 앞,재난재해,1,200,100m이내,30,2017-12,051-888-3072,35.24227196,129.0180737,2019-10-31
"부산광역시 재난현장관리단",부산광역시 북구 낙동대로1739번길 38(덕천동),부산광역시 북구 덕천동 723 배수펌프장 옥상,재난재해,1,200,100m이내,30,2017-12,051-888-3072,35.21198146,129.0022715,2019-10-31
"부산광역시 재난현장관리단",부산광역시 북구 낙동대로 1773(구포동),부산광역시 북구 구포1동 166 구포배수펌프장 1.,재난재해,1,200,100m이내,30,2017-12,051-888-3072,35.2098385,129.003251,2019-10-31
"부산광역시 재난현장관리단",부산광역시 북구 낙동대로 1773(구포동),부산광역시 북구 구포1동 166 구포배수펌프장 2.,재난재해,1,200,100m이내,30,2010-10,051-888-3072,35.2098385,129.003251,2019-10-31
"부산광역시 재난현장관리단",부산광역시 북구 금곡대로123번길 27,부산광역시 북구 덕천동 554,재난재해,1,200,100m이내,30,2017-12,051-888-3072,35.21949571,129.0062777,2019-10-31
"부산광역시 재난현장관리단",부산광역시 북구 금곡대로 348(화명동),부산광역시 북구 화명동 1531 하천변 (대천천),재난재해,1,200,100m이내,30,2017-12,051-888-3072,35.23929423,129.0144147,2019-10-31
"부산광역시 재난현장관리단","부산광역시 동구 자성로108번길 19(범일동, 자성대아파트)",부산광역시 동구 범일2동 825-43 자성대아파트 입구 A동,재난재해,1,200,100m이내,30,2012-08,051-888-3072,35.13519444,129.0634167,2019-10-31
"부산광역시 재난현장관리단",부산광역시 동구 성북로36번길 54,부산광역시 동구 범일동 산81-28,재난재해,1,200,100m이내,30,2017-12,051-888-3072,35.13806421,129.0524328,2019-10-31
"부산광역시 재난현장관리단",부산광역시 동구 구청로1,부산광역시 동구 수정동 806-74,재난재해,1,200,100m이내,30,2017-12,051-888-3072,35.12929577,129.0452977,2019-10-31
"부산광역시 재난현장관리단",부산광역시 남구 유엔로 230(대연동),부산광역시 남구 대연3동 565-1 대천사거리,재난재해,1,200,100m이내,30,2012-08,051-888-3072,35.12992192,129.1011776,2019-10-31
"부산광역시 재난현장관리단",부산광역시 남구 용호로 137(용호동),부산광역시 남구 용호3동 371-11 사거리 성호빌딩 앞,재난재해,1,200,100m이내,30,2012-08,051-888-3072,35.11993939,129.1124461,2019-10-31
"부산광역시 재난현장관리단",부산광역시 남구 분포로 66-38(용호동),부산광역시 남구 용호3동 5-5 용호부두 사무실 옥상,재난재해,1,200,100m이내,30,2017-12,051-888-3072,35.13206317,129.1199991,2019-10-31
"부산광역시 재난현장관리단",부산광역시 남구 북항로 187(감만동),부산광역시 남구 감만1동 626-1 감만부두,재난재해,1,200,100m이내,30,2017-12,051-888-3072,35.10952557,129.0734217,2019-10-31
"부산광역시 재난현장관리단",부산광역시 남구 백운포로 108(용호동),부산광역시 남구 용호4동 895-3 백운포 방파제 앞,재난재해,1,200,100m이내,30,2017-12,051-888-3072,35.10417345,129.1095082,2019-10-31
"부산광역시 재난현장관리단",부산광역시 남구 동명로101번길 57-46(용호동),부산광역시 남구 용호동 산54-6,재난재해,1,200,100m이내,30,2017-12,051-888-3072,35.12253217,129.1045151,2019-10-31
"부산광역시 재난현장관리단",부산광역시 남구 남동천로 38(문현동),부산광역시 남구 문현동 791 하천변 (동천),재난재해,1,200,100m이내,30,2017-12,051-888-3072,35.13993421,129.0662633,2019-10-31
"부산광역시 재난현장관리단",부산광역시 기장군 철마면 임기1길 33-7,부산광역시 기장군 철마면 임기리 670-4 임기교회 또는 임기슈퍼 교각,재난재해,1,200,100m이내,30,2015-12,051-888-3072,35.32006277,129.1189816,2019-10-31
"부산광역시 재난현장관리단",부산광역시 기장군 철마면 이곡길 100,부산광역시 기장군 철마면 이곡리 546-1 이곡마을회관,재난재해,1,200,100m이내,30,2015-12,051-888-3072,35.27522228,129.178826,2019-10-31
"부산광역시 재난현장관리단",부산광역시 기장군 장안읍 임랑해안길 14-1,부산광역시 기장군 장안읍 임랑리 145-7 공중화장실 옥상,재난재해,1,200,100m이내,30,2017-12,051-888-3072,35.31600242,129.2620669,2019-10-31
"부산광역시 재난현장관리단",부산광역시 기장군 장안읍 용소길 48,부산광역시 기장군 장안읍 용소리 70-4 용소마을회관 앞 교각,재난재해,1,200,100m이내,30,2015-12,051-888-3072,35.34393075,129.2457595,2019-10-31
"부산광역시 재난현장관리단",부산광역시 기장군 장안읍 오리길 69-12,부산광역시 기장군 장안읍 오리 285-2 태양교 앞,재난재해,1,200,100m이내,30,2015-12,051-888-3072,35.36919608,129.2682153,2019-10-31
"부산광역시 재난현장관리단",부산광역시 기장군 일광면 이동길 43,부산광역시 기장군 일광면 이천리 170 이동마을회관 옥상,재난재해,1,200,100m이내,30,2017-12,051-888-3072,35.27258403,129.2471611,2019-10-31
"부산광역시 재난현장관리단",부산광역시 기장군 일광면 상리길 132-82,부산광역시 기장군 일광면 원리 산138-6,재난재해,1,200,100m이내,30,2015-12,051-888-3072,35.30324327,129.2257318,2019-10-31
"부산광역시 재난현장관리단",부산광역시 기장군 일광면 동백길 35-7,부산광역시 기장군 일광면 동백길 35-7 크린포스방역청소 앞 교각,재난재해,1,200,100m이내,30,2015-12,051-888-3072,35.29014926,129.2548584,2019-10-31
"부산광역시 재난현장관리단",부산광역시 기장군 기장읍 동암해안길 45,부산광역시 기장군 기장읍 시랑리 137번지,재난재해,1,200,100m이내,30,2015-12,051-888-3072,35.19617708,129.2246987,2019-10-31
"부산광역시 재난현장관리단",부산광역시 기장군 기장읍 기장해안로 940,부산광역시 기장군 기장읍 죽성리 380-2 월전마을회관 옥상,재난재해,1,200,100m이내,30,2015-12,051-888-3072,35.23854313,129.2427174,2019-10-31
"부산광역시 재난현장관리단",부산광역시 기장군 기장읍 공수1길 18,부산광역시 기장군 기장읍 시랑리 651 공수마을경로당 옥상,재난재해,1,200,100m이내,30,2017-12,051-888-3072,35.1846300003,129.211423,2019-10-31
"부산광역시 재난현장관리단",부산광역시 기장군 장안읍 기룡1길 40-15,부산광역시 기장군 장안읍 기룡리 664 선녀와 나무꾼 옆 교각,재난재해,1,200,100m이내,30,2015-12,051-888-3072,35.35614563,129.2494636,2019-10-31
"부산광역시 재난현장관리단",부산광역시 기장군 일광면 칠암길 6-9,부산광역시 기장군 일광면 칠암리 50 칠암마을 회관 옥상,재난재해,1,200,100m이내,30,2017-12,051-888-3072,35.29742585,129.2593381,2019-10-31
"부산광역시 재난현장관리단",부산광역시 강서구 낙동남로 791(녹산동),부산광역시 강서구 녹산동 1273-1 녹산수문관리소 옥상,재난재해,1,200,100m이내,30,2017-12,051-888-3072,35.1203100,128.897318,2019-10-31
"부산광역시 재난현장관리단",부산광역시 강서구 가덕해안로1208번가길 26-6(대항동),부산광역시 강서구 대항동 393-5 대항광장,재난재해,1,200,100m이내,30,2017-12,051-888-3072,35.01266638,128.8284644,2019-10-31
"부산광역시 재난현장관리단",부산광역시 강서구 가덕해안로 795(천성동),부산광역시 강서구 천성동 608번지 9통 회관 옥상,재난재해,1,200,100m이내,30,2017-12,051-888-3072,35.02736258,128.815801,2019-10-31
"부산광역시 재난현장관리단",부산광역시 강서구 가덕해안로 1169번길 58-10,부산광역시 강서구 대항동 86-2,재난재해,1,200,100m이내,30,2015-12,051-888-3072,35.0137836,128.834365,2019-10-31
"부산광역시 재난현장관리단",,부산광역시 부산진구 문현동 721-6,재난재해,1,200,100m이내,30,2016-11,051-888-3072,35.144827,129.063524,2019-10-31
"부산광역시 재난현장관리단",부산광역시 부산진구 진남로283번길 33(전포동),부산광역시 부산진구 전포동 산 65-3,재난재해,1,200,100m이내,30,2016-11,051-888-3072,35.1495047,129.0721624,2019-10-31
"부산광역시 재난현장관리단",,부산광역시 금정구 금사동 14 하천변,재난재해,1,200,100m이내,30,2015-12,051-888-3072,35.216493,129.117998,2019-10-31
"부산광역시 재난현장관리단",부산광역시 금정구 산성로 452,부산광역시 금정구 금성동 554-3 금성동주민센터,재난재해,1,200,100m이내,30,2017-12,051-888-3072,35.2503218,129.056194,2019-10-31
"부산광역시 재난현장관리단",,부산광역시 동래구 수안동 607-12,재난재해,1,200,100m이내,30,2014-08,051-888-3072,35.201477,129.079290,2019-10-31
"부산광역시 재난현장관리단",,부산광역시 동래구 수안동 607-12,재난재해,1,200,100m이내,30,2014-08,051-888-3072,35.201477,129.079290,2019-10-31
"부산광역시 재난현장관리단",,부산광역시 동래구 수안동 17-4,재난재해,1,200,100m이내,30,2015-12,051-888-3072,35.193802,129.090672,2019-10-31
"부산광역시 재난현장관리단",,부산광역시 동래구 안락동 125,재난재해,1,200,100m이내,30,2015-12,051-888-3072,35.1909411,129.1070808,2019-10-31
"부산광역시 재난현장관리단",,부산광역시 동래구 안락동 125(원플러스원 앞),재난재해,1,200,100m이내,30,2015-12,051-888-3072,35.1913795,129.1029582,2019-10-31
"부산광역시 재난현장관리단",,부산광역시 동래구 수안동 17-4(연안교 다리 하부),재난재해,1,200,100m이내,30,2014-08,051-888-3072,35.1936766,129.0910707,2019-10-31
"부산광역시 재난현장관리단",,부산광역시 동래구 수안동 17-4(연안교 다리 하부),재난재해,1,200,100m이내,30,2014-08,051-888-3072,35.1936679,129.0914891,2019-10-31
"부산광역시 재난현장관리단",,부산광역시 동래구 수안동 709-1,재난재해,1,200,100m이내,30,2015-12,051-888-3072,35.1931866,129.0909128,2019-10-31
"부산광역시 재난현장관리단",,부산광역시 동래구 수안동 16,재난재해,1,200,100m이내,30,2015-12,051-888-3072,35.1943512,129.0879843,2019-10-31
"부산광역시 재난현장관리단",부산광역시 동래구 온천천로 288,부산광역시 동래구 수안동 50-2,재난재해,1,200,100m이내,30,2015-12,051-888-3072,35.195459,129.085055,2019-10-31
"부산광역시 재난현장관리단",,부산광역시 동래구 수안동 709-1(무궁화아파트B동앞),재난재해,1,200,100m이내,30,2015-12,051-888-3072,35.198000,129.0822653,2019-10-31
"부산광역시 재난현장관리단",,부산광역시 동래구 수안동 709-1(한전아파트 앞),재난재해,1,200,100m이내,30,2015-12,051-888-3072,35.199705,129.080386,2019-10-31
"부산광역시 재난현장관리단",부산광역시 동래구 중앙대로 1324,부산광역시 동래구 온천동 527(다리위),재난재해,1,200,100m이내,30,2015-12,051-888-3072,35.2039068,129.0784015,2019-10-31
"부산광역시 재난현장관리단",부산광역시 동래구 중앙대로 1520,부산광역시 동래구 온천동 1750-1,재난재해,1,200,100m이내,30,2015-12,051-888-3072,35.2135235,129.0801377,2019-10-31
"부산광역시 재난현장관리단",부산광역시 동래구 중앙대로 1342,부산광역시 동래구 명륜동 744,재난재해,1,200,100m이내,30,2015-12,051-888-3072,35.20707356,129.0782974,2019-10-31
"부산광역시 재난현장관리단",부산광역시 동래구 중앙대로 1520,부산광역시 동래구 온천동 1750-1(동래중학교 앞),재난재해,1,200,100m이내,30,2015-12,051-888-3072,35.2135235,129.0801377,2019-10-31
"부산광역시 재난현장관리단",부산광역시 동래구 중앙대로 1414,부산광역시 동래구 온천동 489-4,재난재해,1,200,100m이내,30,2015-12,051-888-3072,35.21257153,129.0797113,2019-10-31
"부산광역시 재난현장관리단",,부산광역시 동래구 명륜동 721-2(명륜동역 주차장),재난재해,1,200,100m이내,30,2015-12,051-888-3072,35.213856,129.080950,2019-10-31
"부산광역시 재난현장관리단",,부산광역시 동래구 명륜동 1-24(가죽공방 앞),재난재해,1,200,100m이내,30,2015-12,051-888-3072,35.216870,129.084273,2019-10-31
"부산광역시 재난현장관리단",부산광역시 동래구 중앙대로 1520,부산광역시 동래구 온천동 1750-1(남측 큰도로 방향),재난재해,1,200,100m이내,30,2015-12,051-888-3072,35.2135235,129.0801377,2019-10-31
"부산광역시 재난현장관리단",부산광역시 동래구 온천장로 91,부산광역시 동래구 온천동 169-22,재난재해,1,200,100m이내,30,2015-12,051-888-3072,35.21942005,129.0828686,2019-10-31
"부산광역시 재난현장관리단",,부산광역시 동래구 온천동 1750-24,재난재해,1,200,100m이내,30,2015-12,051-888-3072,35.215961,129.080093,2019-10-31
"부산광역시 재난현장관리단",부산광역시 동래구 충렬대로 144,부산광역시 동래구 온천동 1441-1,재난재해,1,200,100m이내,30,2015-12,051-888-3072,35.2051756,129.0756799,2019-10-31
"부산광역시 재난현장관리단",부산광역시 동래구 충렬대로238번가길 25-10,부산광역시 동래구 수안동 110-6,재난재해,1,200,100m이내,30,2015-12,051-888-3072,35.19997061,129.086368,2019-10-31
"부산광역시 재난현장관리단",부산광역시 동래구 온천천로339번길 10,부산광역시 동래구 낙민동 79-1,재난재해,1,200,100m이내,30,2015-12,051-888-3072,35.19446973,129.090543,2019-10-31
"부산광역시 재난현장관리단",부산광역시 동래구 명륜로207번길 26,부산광역시 동래구 명륜동 700-200,재난재해,1,200,100m이내,30,2015-12,051-888-3072,35.21248571,129.081546,2019-10-31
"부산광역시 재난현장관리단",,부산광역시 동래구 수안동 702-6,재난재해,1,200,100m이내,30,2015-12,051-888-3072,35.197777,129.082707,2019-10-31
"부산광역시 재난현장관리단",부산광역시 동래구 중앙대로 1414,부산광역시 동래구 온천동 489-4,재난재해,1,200,100m이내,30,2015-12,051-888-3072,35.21257153,129.079721,2019-10-31
"부산광역시 재난현장관리단",,부산광역시 동래구 명륜동 2-25,재난재해,1,200,100m이내,30,2015-12,051-888-3072,35.217795,129.084935,2019-10-31
"부산광역시 재난현장관리단",,부산광역시 동래구 수안동 67-6,재난재해,1,200,100m이내,30,2015-12,051-888-3072,35.197244,129.083029,2019-10-31
"부산광역시 재난현장관리단",,부산광역시 동래구 수안동 17-1,재난재해,1,200,100m이내,30,2015-12,051-888-3072,35.193744,129.091633,2019-10-31
"부산광역시 재난현장관리단",부산광역시 연제구 온천천남로 88,부산광역시 연제구 연산동 386-31,재난재해,1,200,100m이내,30,2015-12,051-888-3072,35.191066,129.0999893,2019-10-31
"부산광역시 재난현장관리단",부산광역시 연제구 온천천남로 39,부산광역시 연제구 연산동 503-1,재난재해,1,200,100m이내,30,2015-12,051-888-3072,35.19248076,129.095126,2019-10-31
"부산광역시 재난현장관리단",부산광역시 연제구 과정로192번길 13,부산광역시 연제구 연산동 396-30,재난재해,1,200,100m이내,30,2015-12,051-888-3072,35.18857424,129.106258,2019-10-31
"부산광역시 재난현장관리단",,부산광역시 동래구 온천동 1829,재난재해,1,200,100m이내,30,2015-12,051-888-3072,35.222000,129.087111,2019-10-31
"부산광역시 재난현장관리단",부산광역시 금정구 장전온천천로 48,부산광역시 금정구 장전동 655-9,재난재해,1,200,100m이내,30,2015-12,051-888-3072,35.2296176,129.0893411,2019-10-31
"부산광역시 재난현장관리단",,부산광역시 금정구 부곡동 454-10,재난재해,1,200,100m이내,30,2015-12,051-888-3072,35.226708,129.088814,2019-10-31
"부산광역시 재난현장관리단",부산광역시 금정구 장전온천천로 48,부산광역시 금정구 장전동 427,재난재해,1,200,100m이내,30,2015-12,051-888-3072,35.229686,129.0893411,2019-10-31
"부산광역시 재난현장관리단",부산광역시 금정구 장전온천천로 83,부산광역시 금정구 장전동 394-4,재난재해,1,200,100m이내,30,2015-12,051-888-3072,35.23237407,129.0887748,2019-10-31
"부산광역시 재난현장관리단",부산광역시 금정구 장전온천천로 95,부산광역시 금정구 장전동 392-5,재난재해,1,200,100m이내,30,2015-12,051-888-3072,35.233454,129.0890916,2019-10-31
"부산광역시 재난현장관리단",부산광역시 금정구 장전온천천로 113,부산광역시 금정구 장전동 364-8,재난재해,1,200,100m이내,30,2015-12,051-888-3072,35.23492431,129.0888797,2019-10-31
"부산광역시 재난현장관리단",부산광역시 금정구 장전온천천로 144,부산광역시 금정구 장전동 242,재난재해,1,200,100m이내,30,2015-12,051-888-3072,35.23809095,129.0881481,2019-10-31
"부산광역시 재난현장관리단",부산광역시 금정구 구서온천천로 17,부산광역시 금정구 장전동 60-13,재난재해,1,200,100m이내,30,2015-12,051-888-3072,35.24157357,129.088542,2019-10-31
"부산광역시 재난현장관리단",,부산광역시 금정구 구서동474-2,재난재해,1,200,100m이내,30,2015-12,051-888-3072,35.242818,129.090124,2019-10-31
"부산광역시 재난현장관리단",부산광역시 금정구 금정로233번길21,부산광역시 금정구 구서동 415-8,재난재해,1,200,100m이내,30,2015-12,051-888-3072,35.245593,129.0906471,2019-10-31
"부산광역시 재난현장관리단",부산광역시 금정구 금정로233번길46,부산광역시 금정구 구서동 475,재난재해,1,200,100m이내,30,2015-12,051-888-3072,35.24726797,129.0912923,2019-10-31
"부산광역시 재난현장관리단",부산광역시 금정구 금단로 123-13,부산광역시 금정구 남산동 32-8,재난재해,1,200,100m이내,30,2015-12,051-888-3072,35.260098,129.0920029,2019-10-31
"부산광역시 재난현장관리단",부산광역시 금정구 중앙대로1964,부산광역시 금정구 남산동 10-1,재난재해,1,200,100m이내,30,2015-12,051-888-3072,35.2596671,129.091605,2019-10-31
"부산광역시 재난현장관리단",부산광역시 금정구 중앙대로2019-1,부산광역시 금정구 남산동 136-1,재난재해,1,200,100m이내,30,2015-12,051-888-3072,35.26527359,129.0924979,2019-10-31
"부산광역시 재난현장관리단",,부산광역시 금정구 회동동 517-23,재난재해,1,200,100m이내,30,2018-12,051-888-3072,35.230903,129.124692,2019-10-31
"부산광역시 재난현장관리단",,부산광역시 금정구 회동동 517-27,재난재해,1,200,100m이내,30,2018-12,051-888-3072,35.22866839,129.1243947,2019-10-31
"부산광역시 재난현장관리단",,부산광역시 금정구 금사동 37-14,재난재해,1,200,100m이내,30,2018-12,051-888-3072,35.22145149,129.1159924,2019-10-31
"부산광역시 재난현장관리단",,부산광역시 해운대구 반여동 1502-34,재난재해,1,200,100m이내,30,2018-12,051-888-3072,35.211743,129.121330,2019-10-31
"부산광역시 재난현장관리단",,부산광역시 해운대구 반여동 1477-4,재난재해,1,200,100m이내,30,2018-12,051-888-3072,35.19463975,129.1156304,2019-10-31
"부산광역시 재난현장관리단",부산광역시 강서구 낙동북로 477,부산광역시 강서구 대저1동 2300 강서구청,재난재해,1,200,100m이내,30,2018-12,051-888-3072,35.212244,128.9805838,2019-10-31
"부산광역시 재난현장관리단",,부산광역시 강서구 지사동 1249,재난재해,1,200,100m이내,30,2018-12,051-888-3072,35.149951,128.821807,2019-10-31
"부산광역시 재난현장관리단",,부산광역시 남구 대연동 615-5,재난재해,1,200,100m이내,30,2018-12,051-888-3072,35.1295922,129.1050127,2019-10-31
"부산광역시 재난현장관리단",,부산광역시 강서구 대저2동 2020-8,재난재해,1,200,100m이내,30,2018-12,051-888-3072,35.180167,128.955819,2019-10-31
"부산광역시 재난현장관리단",,부산광역시 금정구 두구동 1520-1,재난재해,1,200,100m이내,30,2018-12,051-888-3072,35.291896,129.101952,2019-10-31
"부산광역시 재난현장관리단",,부산광역시 부산진구 부전동 560-5,재난재해,1,200,100m이내,30,2018-12,051-888-3072,35.15123303,129.0562001,2019-10-31
"부산광역시 재난현장관리단",,부산광역시 사상구 괘법동 578-1,재난재해,1,200,100m이내,30,2018-12,051-888-3072,35.159960,128.978081,2019-10-31
"부산광역시 재난현장관리단",,부산광역시 사상구 감전동 174,재난재해,1,200,100m이내,30,2018-12,051-888-3072,35.15553701,128.991266,2019-10-31
"부산광역시 재난현장관리단",,부산광역시 사하구 다대동 681-9,재난재해,1,200,100m이내,30,2018-12,051-888-3072,35.054682,128.971255,2019-10-31
"부산광역시 재난현장관리단",,부산광역시 금정구 선동 1017-15,재난재해,1,200,100m이내,30,2018-12,051-888-3072,35.264524,129.103653,2019-10-31
"부산광역시 재난현장관리단",,부산광역시 북구 금곡동 1835,재난재해,1,200,100m이내,30,2018-12,051-888-3072,35.244388,129.009080,2019-10-31
"부산광역시 재난현장관리단",,부산광역시 기장군 일광면 학리 251-13,재난재해,1,200,100m이내,30,2018-12,051-888-3072,35.260641,129.247380,2019-10-31
"부산광역시 재난현장관리단",,부산광역시 기장군 일광면 학리 251-20,재난재해,1,200,100m이내,30,2018-12,051-888-3072,35.260014,129.247754,2019-10-31
"부산광역시 재난현장관리단",,부산광역시 영도구 남항동3가 141-218,재난재해,1,200,100m이내,30,2018-12,051-888-3072,35.085022,129.035001,2019-10-31
"부산광역시 재난현장관리단",,부산광역시 영도구 남항동3가 141-218,재난재해,1,200,100m이내,30,2018-12,051-888-3072,35.084320,129.035838,2019-10-31
"부산광역시 재난현장관리단",,부산광역시 영도구 남항동3가 141-218,재난재해,1,200,100m이내,30,2018-12,051-888-3072,35.083381,129.036943,2019-10-31
"부산광역시 재난현장관리단",,부산광역시 영도구 남항동3가 141-218,재난재해,1,200,100m이내,30,2018-12,051-888-3072,35.082467,129.038059,2019-10-31
"부산광역시 재난현장관리단",부산광역시 중구 용미길9번길 6-14,부산광역시 중구 남포동1가 62-29,재난재해,1,200,100m이내,30,2019-06,051-888-3072,35.0966499561,129.035126569,2019-10-31
"부산광역시 재난현장관리단",부산광역시 서구 송도해변로 131,부산광역시 서구 암남동 145-2,재난재해,1,200,100m이내,30,2019-06,051-888-3072,35.0779548644,129.021187084,2019-10-31
"부산광역시 재난현장관리단",,부산광역시 서구 암남동 123-20,재난재해,1,200,100m이내,30,2019-06,051-888-3072,35.078129,129.024698,2019-10-31
"부산광역시 재난현장관리단",,부산광역시 영도구 동삼동 639-13,재난재해,1,200,100m이내,30,2019-06,051-888-3072,35.068310,129.065467,2019-10-31
"부산광역시 재난현장관리단",,부산광역시 남구 용호동 산 196-4,재난재해,1,200,100m이내,30,2019-06,051-888-3072,35.099402,129.123072,2019-10-31
"부산광역시 재난현장관리단",,부산광역시 남구 용호동 962,재난재해,1,200,100m이내,30,2019-06,051-888-3072,35.134875,129.112779,2019-10-31
"부산광역시 재난현장관리단",,부산광역시 해운대구 송정동 288-56,재난재해,1,200,100m이내,30,2019-06,051-888-3072,35.180118,129.207203,2019-10-31
"부산광역시 재난현장관리단",,부산광역시 사하구 하단동 1165-1,재난재해,1,200,100m이내,30,2019-06,051-888-3072,35.104191,128.956359,2019-10-31
"부산광역시 재난현장관리단",,부산광역시 사하구 하단동 1162,재난재해,1,200,100m이내,30,2019-06,051-888-3072,35.114164,128.958615,2019-10-31
"부산광역시 재난현장관리단",,부산광역시 사하구 다대동 1525,재난재해,1,200,100m이내,30,2019-06,051-888-3072,35.070088,128.953020,2019-10-31
"부산광역시 재난현장관리단",,부산광역시 사하구 다대동 1543,재난재해,1,200,100m이내,30,2019-06,051-888-3072,35.049749,128.960280,2019-10-31
"부산광역시 재난현장관리단",,부산광역시 사하구 다대동 120-8,재난재해,1,200,100m이내,30,2019-06,051-888-3072,35.057420,128.978774,2019-10-31
"부산광역시 재난현장관리단",,부산광역시 강서구 눌차동 141-18,재난재해,1,200,100m이내,30,2019-06,051-888-3072,35.0621898834,128.847965,2019-10-31
"부산광역시 재난현장관리단",,부산광역시 강서구 동선동 201-26,재난재해,1,200,100m이내,30,2019-06,051-888-3072,35.054882,128.848020,2019-10-31
"부산광역시 재난현장관리단",,부산광역시 강서구 가덕도동 1344-4,재난재해,1,200,100m이내,30,2019-06,051-888-3072,35.033511,128.809993,2019-10-31
"부산광역시 재난현장관리단",부산광역시 강서구 녹산산단382로60번길 2,부산광역시 강서구 송정동 1769-4,재난재해,1,200,100m이내,30,2019-06,051-888-3072,35.083923877,128.858832,2019-10-31
"부산광역시 재난현장관리단",부산광역시 강서구 명지새동네길1번길 84,부산광역시 강서구 명지동 3208-5,재난재해,1,200,100m이내,30,2019-06,051-888-3072,35.108716,128.932056126,2019-10-31
"부산광역시 재난현장관리단",부산광역시 기장군 장안읍 월내해안길 66,부산광역시 기장군 장안읍 월내리 132-142,재난재해,1,200,100m이내,30,2019-06,051-888-3072,35.325172,129.276779,2019-10-31
"부산광역시 재난현장관리단",,부산광역시 기장군 기장읍 연화리 297-7,재난재해,1,200,100m이내,30,2019-06,051-888-3072,35.214704,129.224797,2019-10-31
"부산광역시 재난현장관리단",,부산광역시 기장군 기장읍 죽성리 134-12,재난재해,1,200,100m이내,30,2019-06,051-888-3072,35.239711,129.247837,2019-10-31
"부산광역시 재난현장관리단",,부산광역시 기장군 일광면 동백리 285-32,재난재해,1,200,100m이내,30,2019-06,051-888-3072,35.282443,129.258618,2019-10-31
"부산광역시 재난현장관리단",,부산광역시 기장군 장안읍 임랑리 1-49,재난재해,1,200,100m이내,30,2019-06,051-888-3072,35.320553,129.266504,2019-10-31
"부산광역시 교통정보서비스센터",,부산광역시 사상구 감전동 123-6,교통정보수집,1,120,통과차량번호판,1,2014-10,051-600-0200,35.15719513,128.979394,2019-10-31
"부산광역시 교통정보서비스센터",,부산광역시 사상구 주례동 694,교통정보수집,1,120,통과차량번호판,1,2014-10,051-600-0200,35.152817,129.009533,2019-10-31
"부산광역시 교통정보서비스센터",,부산광역시 부산진구 개금동 273-2,교통정보수집,2,120,통과차량번호판,1,2014-10,051-600-0200,35.154016,129.017010,2019-10-31
"부산광역시 교통정보서비스센터",,부산광역시 남구 우암동 246-6,교통정보수집,2,120,통과차량번호판,1,2014-10,051-600-0200,35.121655,129.077972,2019-10-31
"부산광역시 교통정보서비스센터",,부산광역시 남구 우암동 265-2,교통정보수집,2,120,통과차량번호판,1,2014-10,051-600-0200,35.123417,129.072071,2019-10-31
"부산광역시 교통정보서비스센터",,부산광역시 부산진구 범천동 943-1,교통정보수집,1,120,통과차량번호판,1,2014-10,051-600-0200,35.150337,129.060004,2019-10-31
"부산광역시 교통정보서비스센터",,부산광역시 부산진구 부전동 575,교통정보수집,1,120,통과차량번호판,1,2014-10,051-600-0200,35.150596,129.061517,2019-10-31
"부산광역시 교통정보서비스센터",,부산광역시 부산진구 개금동 444-6,교통정보수집,2,120,통과차량번호판,1,2014-10,051-600-0200,35.161841,129.041170,2019-10-31
"부산광역시 교통정보서비스센터",,부산광역시 남구 문현동 682,교통정보수집,1,200,통과차량번호판,1,2016-09,051-600-0200,35.141469,129.067131,2019-10-31
"부산광역시 교통정보서비스센터",,부산광역시 남구 문현동 774-4,교통정보수집,1,200,통과차량번호판,1,2016-09,051-600-0200,35.143525,129.066662,2019-10-31
"부산광역시 교통정보서비스센터",,부산광역시 사상구 주례동 231-11,교통정보수집,1,200,통과차량번호판,1,2016-09,051-600-0200,35.152257,129.006474,2019-10-31
"부산광역시 교통정보서비스센터",,부산광역시 부산진구 전포동 380-1,교통정보수집,3,200,통과차량번호판,1,2016-09,051-600-0200,35.150446,129.068284,2019-10-31
"부산광역시 교통정보서비스센터",,부산광역시 부산진구 전포동 380-1,교통정보수집,3,200,통과차량번호판,1,2016-09,051-600-0200,35.150446,129.068284,2019-10-31
"부산광역시 교통정보서비스센터",,부산광역시 수영구 망미동 41-2,교통정보수집,1,200,통과차량번호판,1,2018-08,051-600-0200,35.181194,129.115817,2019-10-31
"부산광역시 교통정보서비스센터",,부산광역시 금정구 금사동 11-1,교통정보수집,1,200,통과차량번호판,1,2018-08,051-600-0200,35.216906,129.118045,2019-10-31
"부산광역시 교통정보서비스센터",,부산광역시 금정구 오륜동 산 168-2,교통정보수집,2,200,통과차량번호판,1,2018-08,051-600-0200,35.241482,129.109576,2019-10-31
"부산광역시 교통정보서비스센터",,부산광역시 금정구 오륜동 산 168-2,교통정보수집,2,200,통과차량번호판,1,2018-08,051-600-0200,35.241307,129.109923,2019-10-31
"부산광역시 교통정보서비스센터",부산광역시 서구 자갈치로 14-11,부산광역시 서구 충무동1가 43-1 신창경로당,교통정보수집,1,200,360도전방면,30,2011-06,051-600-0200,35.09590657,129.0261389,2019-10-31
"부산광역시 교통정보서비스센터",부산광역시 중구 자갈치로47번길 5(남포동5가),부산광역시 중구 남포동5가 50,교통정보수집,1,130,360도전방면,30,2012-06,051-600-0200,35.09783657,129.0292284,2019-10-31
"부산광역시 교통정보서비스센터",부산광역시 중구 구덕로 4-1(광복동1가),부산광역시 중구 광복동1가 41,교통정보수집,1,200,360도전방면,30,2018-07,051-600-0200,35.09826728,129.0349826,2019-10-31
"부산광역시 교통정보서비스센터",부산광역시 중구 대교로 140(중앙동5가),부산광역시 중구 중앙동5가 17(중앙대로),교통정보수집,1,200,360도전방면,30,2017-08,051-600-0200,35.1030617,129.0365816,2019-10-31
"부산광역시 교통정보서비스센터",,부산광역시 중구 영주1동 614(중앙대로),교통정보수집,1,41,360도전방면,30,2009-06,051-600-0200,35.11184984,129.0379546,2019-10-31
"부산광역시 교통정보서비스센터",,부산광역시 동구 초량2동 1207(중앙대로),교통정보수집,1,200,360도전방면,30,2018-07,051-600-0200,35.1154936,129.0396493,2019-10-31
"부산광역시 교통정보서비스센터",,부산광역시 동구 초량3동 1147(중앙대로),교통정보수집,1,41,360도전방면,30,2010-05,051-600-0200,35.11999287,129.0421799,2019-10-31
"부산광역시 교통정보서비스센터",,부산광역시 동구 좌천1동 120(중앙대로),교통정보수집,1,41,360도전방면,30,2011-06,051-600-0200,35.13311902,129.053472,2019-10-31
"부산광역시 교통정보서비스센터",,부산광역시 부산진구 범천1동 887(조방로),교통정보수집,1,130,360도전방면,30,2012-06,051-600-0200,35.14198229,129.0591609,2019-10-31
"부산광역시 교통정보서비스센터",,부산광역시 부산진구 범천1동 945(범일로),교통정보수집,1,200,360도전방면,30,2015-08,051-600-0200,35.1472992,129.0590261,2019-10-31
"부산광역시 교통정보서비스센터",,부산광역시 부산진구 부전2동 254(중앙로),교통정보수집,1,200,360도전방면,30,2017-08,051-600-0200,35.15460888,129.0589525,2019-10-31
"부산광역시 교통정보서비스센터",,부산광역시 부산진구 부전2동 156(가야대로),교통정보수집,1,200,360도전방면,30,2015-08,051-600-0200,35.15756543,129.0593068,2019-10-31
"부산광역시 교통정보서비스센터",,부산광역시 부산진구 부전1동 22(거제대로),교통정보수집,1,200,360도전방면,30,2018-07,051-600-0200,35.16408136,129.0639073,2019-10-31
"부산광역시 교통정보서비스센터",,부산광역시 부산진구 양정1동 402(거제대로),교통정보수집,1,41,360도전방면,30,2010-05,051-600-0200,35.16813121,129.0676559,2019-10-31
"부산광역시 교통정보서비스센터",,부산광역시 부산진구 양정1동 309(거제대로),교통정보수집,1,200,360도전방면,30,2018-07,051-600-0200,35.17286541,129.070901,2019-10-31
"부산광역시 교통정보서비스센터",,부산광역시 연제구 연산5동 1000(중앙대로),교통정보수집,1,41,360도전방면,30,2011-06,051-600-0200,35.17886635,129.0756823,2019-10-31
"부산광역시 교통정보서비스센터",,부산광역시 연제구 연산동 739(중앙대로),교통정보수집,1,200,360도전방면,30,2018-07,051-600-0200,35.18629076,129.0817822,2019-10-31
"부산광역시 교통정보서비스센터",,부산광역시 연제구 거제1동 134(중앙대로),교통정보수집,1,130,360도전방면,30,2012-06,051-600-0200,35.19576456,129.0801851,2019-10-31
"부산광역시 교통정보서비스센터",,부산광역시 동래구 온천2동 485(중앙대로),교통정보수집,1,130,360도전방면,30,2012-06,051-600-0200,35.21187099,129.0784466,2019-10-31
"부산광역시 교통정보서비스센터",,부산광역시 동래구 온천1동 172(중앙대로),교통정보수집,1,130,360도전방면,30,2014-06,051-600-0200,35.21809384,129.0841865,2019-10-31
"부산광역시 교통정보서비스센터",,부산광역시 금정구 장전동 417(금정로),교통정보수집,1,200,360도전방면,30,2015-08,051-600-0200,35.23115524,129.0863218,2019-10-31
"부산광역시 교통정보서비스센터",,부산광역시 금정구 부곡2동 266(금정로),교통정보수집,1,41,360도전방면,30,2011-06,051-600-0200,35.23073578,129.0915663,2019-10-31
"부산광역시 교통정보서비스센터",,부산광역시 금정구 구서동 83-9(중앙대로),교통정보수집,1,130,360도전방면,30,2013-06,051-600-0200,35.24657846,129.0929674,2019-10-31
"부산광역시 교통정보서비스센터",,부산광역시 금정구 남산동 273(중앙대로),교통정보수집,1,200,360도전방면,30,2015-08,051-600-0200,35.26674216,129.0929312,2019-10-31
"부산광역시 교통정보서비스센터",,부산광역시 금정구 노포동 산80(중앙대로),교통정보수집,1,200,360도전방면,30,2016-09,051-600-0200,35.2889569,129.0966079,2019-10-31
"부산광역시 교통정보서비스센터",,부산광역시 금정구 구서동 107-2(중앙대로),교통정보수집,1,41,360도전방면,30,2009-06,051-600-0200,35.25366327,129.1002712,2019-10-31
"부산광역시 교통정보서비스센터",부산광역시 동구 범일로53번길 25(범일동),부산광역시 동구 범일동 252(범일로),교통정보수집,1,200,360도전방면,30,2017-08,051-600-0200,35.13013729,129.0597758,2019-10-31
"부산광역시 교통정보서비스센터",,부산광역시 남구 우암동 55-2(북항로),교통정보수집,1,130,360도전방면,30,2013-06,051-600-0200,35.12436169,129.0791131,2019-10-31
"부산광역시 교통정보서비스센터",,부산광역시 부산진구 전포동 864-1(중앙대로),교통정보수집,1,130,360도전방면,30,2014-05,051-600-0200,35.16511561,129.0669354,2019-10-31
"부산광역시 교통정보서비스센터",,부산광역시 부산진구 개금1동 476(가야대로),교통정보수집,1,130,360도전방면,30,2012-06,051-600-0200,35.15343574,129.0202531,2019-10-31
"부산광역시 교통정보서비스센터",,부산광역시 사상구 주례1동 476(가야대로),교통정보수집,1,41,360도전방면,30,2011-06,051-600-0200,35.150046,129.000244,2019-10-31
"부산광역시 교통정보서비스센터",,부산광역시 부산진구 가야동 251(가야대로),교통정보수집,1,41,360도전방면,30,2009-06,051-600-0200,35.15429278,129.0323168,2019-10-31
"부산광역시 교통정보서비스센터",,부산광역시 부산진구 가야동 251(가야대로),교통정보수집,1,200,360도전방면,30,2016-09,051-600-0200,35.15424875,129.0323898,2019-10-31
"부산광역시 교통정보서비스센터",,부산광역시 동구 범일동 282-7(범일로),교통정보수집,1,130,360도전방면,30,2013-06,051-600-0200,35.13735152,129.0637231,2019-10-31
"부산광역시 교통정보서비스센터",,부산광역시 남구 문현1동 807(자성로),교통정보수집,1,200,360도전방면,30,2018-07,051-600-0200,35.13715462,129.0677387,2019-10-31
"부산광역시 교통정보서비스센터",,부산광역시 남구 대연1동 1746(수영로),교통정보수집,1,130,360도전방면,30,2012-06,051-600-0200,35.13500185,129.0916947,2019-10-31
"부산광역시 교통정보서비스센터",,부산광역시 남구 대연동 72(수영로),교통정보수집,1,130,360도전방면,30,2013-06,051-600-0200,35.13703742,129.0995685,2019-10-31
"부산광역시 교통정보서비스센터",,부산광역시 남구 대연3동 29(수영로),교통정보수집,1,200,360도전방면,30,2015-08,051-600-0200,35.13971977,129.1053283,2019-10-31
"부산광역시 교통정보서비스센터",,부산광역시 수영구 남천동 25(수영로),교통정보수집,1,41,360도전방면,30,2011-06,051-600-0200,35.143795,129.109468,2019-10-31
"부산광역시 교통정보서비스센터",,부산광역시 수영구 광안동 1071(수영로),교통정보수집,1,200,360도전방면,30,2017-08,051-600-0200,35.16761354,129.1143329,2019-10-31
"부산광역시 교통정보서비스센터",,부산광역시 수영구 민락동 186,교통정보수집,1,200,360도전방면,30,2016-09,051-600-0200,35.1585984,129.1211112,2019-10-31
"부산광역시 교통정보서비스센터",,부산광역시 남구 대연동 627(신선로),교통정보수집,1,130,360도전방면,30,2014-06,051-600-0200,35.12970257,129.1058958,2019-10-31
"부산광역시 교통정보서비스센터",,부산광역시 수영구 남천동 545(황령대로),교통정보수집,1,200,360도전방면,30,2018-07,051-600-0200,35.13745634,129.1098446,2019-10-31
"부산광역시 교통정보서비스센터",,부산광역시 남구 용당동 483-13,교통정보수집,1,130,360도전방면,30,2013-06,051-600-0200,35.12109452,129.0987396,2019-10-31
"부산광역시 교통정보서비스센터",,부산광역시 남구 대연동 999(유엔로),교통정보수집,1,41,360도전방면,30,2011-06,051-600-0200,35.13007706,129.0926053,2019-10-31
"부산광역시 교통정보서비스센터",,부산광역시 남구 문현동 1117(우암로),교통정보수집,1,130,360도전방면,30,2012-06,051-600-0200,35.13009879,129.0666663,2019-10-31
"부산광역시 교통정보서비스센터",,부산광역시 부산진구 양정3동 386(거제대로),교통정보수집,1,200,360도전방면,30,2018-07,051-600-0200,35.17487159,129.0678047,2019-10-31
"부산광역시 교통정보서비스센터",,부산광역시 연제구 거제동 905(월드컵대로),교통정보수집,1,200,360도전방면,30,2016-09,051-600-0200,35.19113797,129.0672482,2019-10-31
"부산광역시 교통정보서비스센터",,부산광역시 동래구 사직동 102(월드컵대로),교통정보수집,1,200,360도전방면,30,2016-09,051-600-0200,35.19470257,129.0637844,2019-10-31
"부산광역시 교통정보서비스센터",,부산광역시 동구 초량3동 1185(충장대로),교통정보수집,1,200,360도전방면,30,2017-08,051-600-0200,35.11606791,129.0444729,2019-10-31
"부산광역시 교통정보서비스센터",,부산광역시 중구 중앙동4가 87(충장대로),교통정보수집,1,41,360도전방면,30,2010-05,051-600-0200,35.10537966,129.0374041,2019-10-31
"부산광역시 교통정보서비스센터",,부산광역시 동구 초량동 1171-8,교통정보수집,1,200,360도전방면,30,2015-12,051-600-0200,35.12477849,129.0490945,2019-10-31
"부산광역시 교통정보서비스센터",,부산광역시 수영구 민락동 14(수영로),교통정보수집,1,130,360도전방면,30,2014-06,051-600-0200,35.16541935,129.1256505,2019-10-31
"부산광역시 교통정보서비스센터",,부산광역시 수영구 민락동 14-32(광남로),교통정보수집,1,130,360도전방면,30,2013-06,051-600-0200,35.15989213,129.1281402,2019-10-31
"부산광역시 교통정보서비스센터",,부산광역시 중구 남포동6가 85(중앙대로),교통정보수집,1,200,360도전방면,30,2016-09,051-600-0200,35.0984255,129.0276775,2019-10-31
"부산광역시 교통정보서비스센터",,부산광역시 중구 보수동1가 141-1(대청로),교통정보수집,1,130,360도전방면,30,2013-06,051-600-0200,35.10311485,129.0279035,2019-10-31
"부산광역시 교통정보서비스센터",,부산광역시 서구 암남동 221-1(감천로),교통정보수집,1,200,360도전방면,30,2017-08,051-600-0200,35.07859786,129.0188882,2019-10-31
"부산광역시 교통정보서비스센터",,부산광역시 기장군 정관읍 월평리 141-74(산단로),교통정보수집,1,130,360도전방면,30,2014-11,051-600-0200,35.35761221,129.1410394,2019-10-31
"부산광역시 교통정보서비스센터",,부산광역시 기장군 장안읍 좌천리 473-6,교통정보수집,1,130,360도전방면,30,2013-08,051-600-0200,35.31846318,129.239965,2019-10-31
"부산광역시 교통정보서비스센터",,부산광역시 기장군 기장읍 동부리13-4(국도14호),교통정보수집,1,200,360도전방면,30,2017-08,051-600-0200,35.25155612,129.2210098,2019-10-31
"부산광역시 교통정보서비스센터",,부산광역시 남구 문현동 13-2(전포대로),교통정보수집,1,200,360도전방면,30,2016-09,051-600-0200,35.14590064,129.073392,2019-10-31
"부산광역시 교통정보서비스센터",,부산광역시 연제구 연산동 419(과정로),교통정보수집,1,200,360도전방면,30,2016-09,051-600-0200,35.149225,129.065318,2019-10-31
"부산광역시 교통정보서비스센터",,부산광역시 연제구 연산동 104(반송로),교통정보수집,1,41,360도전방면,30,2010-05,051-600-0200,35.187755,129.107297,2019-10-31
"부산광역시 교통정보서비스센터",,부산광역시 연제구 연산7동 948(연수로),교통정보수집,1,200,360도전방면,30,2016-09,051-600-0200,35.191875,129.089358,2019-10-31
"부산광역시 교통정보서비스센터",,부산광역시 수영구 수영동 464(연수로),교통정보수집,1,200,360도전방면,30,2018-07,051-600-0200,35.174558,129.086591,2019-10-31
"부산광역시 교통정보서비스센터",,부산광역시 금정구 금사동 113-25반송로,교통정보수집,1,200,360도전방면,30,2015-08,051-600-0200,35.172775,129.103547,2019-10-31
"부산광역시 교통정보서비스센터",,부산광역시 해운대구 좌동 1473해운대로,교통정보수집,1,200,360도전방면,30,2016-09,051-600-0200,35.2167619,129.1178377,2019-10-31
"부산광역시 교통정보서비스센터",,부산광역시 해운대구 송정동 305-5해운대로,교통정보수집,1,200,360도전방면,30,2017-08,051-600-0200,35.169121,129.175823,2019-10-31
"부산광역시 교통정보서비스센터",,부산광역시 영도구 봉래2동 42태종로,교통정보수집,1,41,360도전방면,30,2010-05,051-600-0200,35.180484,129.198645,2019-10-31
"부산광역시 교통정보서비스센터",,부산광역시 영도구 영선1가 52태종로,교통정보수집,1,200,360도전방면,30,2015-08,051-600-0200,35.092924,129.044895,2019-10-31
"부산광역시 교통정보서비스센터",,부산광역시 사상구 삼락동 73-10낙동대로,교통정보수집,1,200,360도전방면,30,2017-08,051-600-0200,35.092215,129.039845,2019-10-31
"부산광역시 교통정보서비스센터",,부산광역시 부산진구 부전2동 503-15가야대로,교통정보수집,1,200,360도전방면,30,2017-11,051-600-0200,35.15717855,129.0567513,2019-10-31
"부산광역시 교통정보서비스센터",,부산광역시 사상구 감전1동 168-17 가야대로,교통정보수집,1,200,360도전방면,30,2018-07,051-600-0200,35.15632894,129.0556119,2019-10-31
"부산광역시 교통정보서비스센터",,부산광역시 강서구 대저2동 3958고속도로104,교통정보수집,1,200,360도전방면,30,2015-08,051-600-0200,35.152118,128.972695,2019-10-31
"부산광역시 교통정보서비스센터",,부산광역시 사상구 학장동 273학감대로,교통정보수집,1,200,360도전방면,30,2016-09,051-600-0200,35.15543524,128.9534244,2019-10-31
"부산광역시 교통정보서비스센터",,부산광역시 사상구 학장동 477학장로,교통정보수집,1,41,360도전방면,30,2009-06,051-600-0200,35.149265,128.989574,2019-10-31
"부산광역시 교통정보서비스센터",,부산광역시 사상구 엄궁동 574낙동대로,교통정보수집,1,41,360도전방면,30,2011-06,051-600-0200,35.143135,128.987631,2019-10-31
"부산광역시 교통정보서비스센터",,부산광역시 영도구 청학동 335-4(태종로),교통정보수집,1,41,360도전방면,30,2010-10,051-600-0200,35.091886,129.063861,2019-10-31
"부산광역시 교통정보서비스센터",,부산광역시 해운대구 우동 1524,교통정보수집,1,200,360도전방면,30,2015-12,051-600-0200,35.16927985,129.1323653,2019-10-31
"부산광역시 교통정보서비스센터",,부산광역시 부산진구 연지동 72동평로,교통정보수집,1,41,360도전방면,30,2010-05,051-600-0200,35.13146085,128.9722028,2019-10-31
"부산광역시 교통정보서비스센터",,부산광역시 부산진구 부암동 306동평로,교통정보수집,1,130,360도전방면,30,2014-06,051-600-0200,35.1685746,129.0503535,2019-10-31
"부산광역시 교통정보서비스센터",,부산광역시 부산진구 부암동 637백양대로,교통정보수집,1,200,360도전방면,30,2018-07,051-600-0200,35.17080479,129.0553498,2019-10-31
"부산광역시 교통정보서비스센터",,부산광역시 부산진구 범천동 1063가야대로,교통정보수집,1,200,360도전방면,30,2016-09,051-600-0200,35.168485,129.0503874,2019-10-31
"부산광역시 교통정보서비스센터",,부산광역시 부산진구 범천동 1589-20가야대로,교통정보수집,1,130,360도전방면,30,2013-06,051-600-0200,35.16163921,129.0500458,2019-10-31
"부산광역시 교통정보서비스센터",,부산광역시 해운대구 우1동 524해운대로,교통정보수집,1,130,360도전방면,30,2014-06,051-600-0200,35.1643491,129.1601819,2019-10-31
"부산광역시 교통정보서비스센터",,부산광역시 해운대구 중동 1439해운대해변로,교통정보수집,1,200,360도전방면,30,2017-08,051-600-0200,35.1597335,129.1621345,2019-10-31
"부산광역시 교통정보서비스센터",,부산광역시 해운대구 우동 1432해운대해변로,교통정보수집,1,200,360도전방면,30,2018-07,051-600-0200,35.16410012,129.1600462,2019-10-31
"부산광역시 교통정보서비스센터",,부산광역시 해운대구 우동 1090해운대로,교통정보수집,1,200,360도전방면,30,2018-07,051-600-0200,35.159625,129.161785,2019-10-31
"부산광역시 교통정보서비스센터",,부산광역시 해운대구 우동 1413수영강변대로,교통정보수집,1,200,360도전방면,30,2018-07,051-600-0200,35.15760428,129.1510165,2019-10-31
"부산광역시 교통정보서비스센터",,부산광역시 동래구 안락2동 472충렬대로,교통정보수집,1,41,360도전방면,30,2009-06,051-600-0200,35.16869409,129.1390486,2019-10-31
"부산광역시 교통정보서비스센터",,부산광역시 동래구 안락1동 769충렬대로,교통정보수집,1,200,360도전방면,30,2009-06,051-600-0200,35.16363804,129.1326443,2019-10-31
"부산광역시 교통정보서비스센터",,부산광역시 동래구 수안동 201충렬대로,교통정보수집,1,41,360도전방면,30,2010-05,051-600-0200,35.1941066,129.1136323,2019-10-31
"부산광역시 교통정보서비스센터",,부산광역시 동래구 온천3동 1441충렬대로,교통정보수집,1,200,360도전방면,30,2009-06,051-600-0200,35.19812776,129.0966384,2019-10-31
"부산광역시 교통정보서비스센터",,부산광역시 동래구 온천3동 1423충렬대로,교통정보수집,1,200,360도전방면,30,2018-07,051-600-0200,35.20166152,129.0836154,2019-10-31
"부산광역시 교통정보서비스센터",,부산광역시 사상구 모라동 75-17관문대로,교통정보수집,1,130,360도전방면,30,2013-06,051-600-0200,35.18565547,128.9984815,2019-10-31
"부산광역시 교통정보서비스센터",,부산광역시 북구 만덕3동 605만덕대로,교통정보수집,1,200,360도전방면,30,2018-07,051-600-0200,35.21275199,129.0366211,2019-10-31
"부산광역시 교통정보서비스센터",,부산광역시 북구 덕천1동 399만덕대로,교통정보수집,1,41,360도전방면,30,2009-06,051-600-0200,35.210265,129.0054462,2019-10-31
"부산광역시 교통정보서비스센터",,부산광역시 북구 구포2동 1067낙동대로,교통정보수집,1,130,360도전방면,30,2013-06,051-600-0200,35.20390139,128.9942452,2019-10-31
"부산광역시 교통정보서비스센터",,부산광역시 사상구 모라동 459관문대로,교통정보수집,1,200,360도전방면,30,2016-09,051-600-0200,35.18644952,128.9910508,2019-10-31
"부산광역시 교통정보서비스센터",,부산광역시 사하구 괴정3동 971낙동대로,교통정보수집,1,41,360도전방면,30,2009-06,051-600-0200,30.1002025,128.9932412,2019-10-31
"부산광역시 교통정보서비스센터",,부산광역시 사하구 하단동 617(낙동대로),교통정보수집,1,41,360도전방면,30,2009-06,051-600-0200,35.10618308,128.9682442,2019-10-31
"부산광역시 교통정보서비스센터",,부산광역시 사하구 하단2동 506(낙동대로),교통정보수집,1,200,360도전방면,30,2015-08,051-600-0200,35.11041687,128.9658711,2019-10-31
"부산광역시 교통정보서비스센터",,부산광역시 사하구 감천동 729(감천로),교통정보수집,1,130,360도전방면,30,2014-06,051-600-0200,35.08951326,128.9996561,2019-10-31
"부산광역시 교통정보서비스센터",,부산광역시 강서구 녹산동 산5-11(낙동남로),교통정보수집,1,200,360도전방면,30,2017-08,051-600-0200,35.12189569,128.8942335,2019-10-31
"부산광역시 교통정보서비스센터",,부산광역시 사하구 다대동 1552-2(다대로),교통정보수집,1,200,360도전방면,30,2016-09,051-600-0200,35.0484444,128.9659293,2019-10-31
"부산광역시 교통정보서비스센터",,부산광역시 서구 동대신동3가 151(보수대로),교통정보수집,1,200,360도전방면,30,2015-08,051-600-0200,35.11570913,129.0173993,2019-10-31
"부산광역시 교통정보서비스센터",,부산광역시 서구 서대신동2가 120(구덕로),교통정보수집,1,130,360도전방면,30,2012-06,051-600-0200,35.11021231,129.017359984,2019-10-31
"부산광역시 교통정보서비스센터",,부산광역시 서구 서대신동2가 336(낙동대로),교통정보수집,1,130,360도전방면,30,2012-06,051-600-0200,35.11094252,129.0119937,2019-10-31
"부산광역시 교통정보서비스센터",,부산광역시 서구 부민동1가 27(구덕로),교통정보수집,1,200,360도전방면,30,2016-09,051-600-0200,35.1033425,129.0202886,2019-10-31
"부산광역시 교통정보서비스센터",,부산광역시 사하구 하단2동 1163(낙동남로),교통정보수집,1,200,360도전방면,30,2016-09,051-600-0200,35.1064712,128.9567149,2019-10-31
"부산광역시 교통정보서비스센터",,부산광역시 사상구 감전동 174(낙동대로),교통정보수집,1,130,360도전방면,30,2012-06,051-600-0200,35.15553701,128.991266,2019-10-31
"부산광역시 교통정보서비스센터",,부산광역시 사하구 신평1동 569-1(을숙도대로),교통정보수집,1,130,360도전방면,30,2012-06,051-600-0200,35.08495009,128.9772608,2019-10-31
"부산광역시 교통정보서비스센터",,부산광역시 사상구 괘법동 558(사상로),교통정보수집,1,200,360도전방면,30,2015-08,051-600-0200,35.1619734,128.9846893,2019-10-31
"부산광역시 교통정보서비스센터",,부산광역시 북구 덕천동 297(금곡대로),교통정보수집,1,200,360도전방면,30,2016-09,051-600-0200,35.22040701,129.0082763,2019-10-31
"부산광역시 교통정보서비스센터",,부산광역시 북구 덕천동 310(고속도로10),교통정보수집,1,41,360도전방면,30,2010-05,051-600-0200,35.21488583,129.0044773,2019-10-31
"부산광역시 교통정보서비스센터",,부산광역시 강서구 명지동 3205(공항로),교통정보수집,1,200,360도전방면,30,2018-07,051-600-0200,35.11117591,128.9322653,2019-10-31
"부산광역시 교통정보서비스센터",,부산광역시 강서구 대저2동 1932(공항로),교통정보수집,1,200,360도전방면,30,2015-08,051-600-0200,35.1809261,128.9580955,2019-10-31
"부산광역시 교통정보서비스센터",,부산광역시 강서구 대저1동1-25번지(공항로)_강서낙동강교,교통정보수집,1,200,360도전방면,30,2016-09,051-600-0200,35.20311354,128.9742163,2019-10-31
"부산광역시 교통정보서비스센터",,부산광역시 수영구 광안동 192-7(광안리해변),교통정보수집,1,200,360도전방면,30,2018-07,051-600-0200,35.15432683,129.1190845,2019-10-31
"부산광역시 교통정보서비스센터",,부산광역시 남구 대연동 130(수영로),교통정보수집,1,130,360도전방면,30,2012-06,051-600-0200,35.14192446,129.0861442,2019-10-31
"부산광역시 교통정보서비스센터",,부산광역시 수영구 망미동 194(번영로),교통정보수집,1,200,360도전방면,30,2017-08,051-600-0200,35.1801285,129.1140741,2019-10-31
"부산광역시 교통정보서비스센터",,부산광역시 해운대구 반여동 690(수영강변로),교통정보수집,1,200,360도전방면,30,2015-08,051-600-0200,35.20677724,129.1200199,2019-10-31
"부산광역시 교통정보서비스센터",,부산광역시 금정구 오륜동 671(번영로),교통정보수집,1,130,360도전방면,30,2012-06,051-600-0200,35.24840765,129.1035472,2019-10-31
"부산광역시 교통정보서비스센터",,부산광역시 금정구 선동 634-7(고속도로1),교통정보수집,1,130,360도전방면,30,2012-06,051-600-0200,35.27467056,129.108796,2019-10-31
"부산광역시 교통정보서비스센터",,부산광역시 해운대구 재송동 706(센텀북대로),교통정보수집,1,130,360도전방면,30,2012-06,051-600-0200,35.17538667,129.1223234,2019-10-31
"부산광역시 교통정보서비스센터",,부산광역시 해운대구 재송동 676(해운대로),교통정보수집,1,130,360도전방면,30,2012-06,051-600-0200,35.17750145,129.126949,2019-10-31
"부산광역시 교통정보서비스센터",,부산광역시 해운대구 우동 1430(해운대로),교통정보수집,1,41,360도전방면,30,2010-05,051-600-0200,35.15977274,129.1489849,2019-10-31
"부산광역시 교통정보서비스센터",,부산광역시 남구 대연동 238-6(번영로),교통정보수집,1,200,360도전방면,30,2018-07,051-600-0200,35.14760563,129.095145,2019-10-31
"부산광역시 교통정보서비스센터",,부산광역시 부산진구 전포동 667-16(서전로),교통정보수집,1,100,360도전방면,30,2013-01,051-600-0200,35.15796601,129.0625891,2019-10-31
"부산광역시 교통정보서비스센터",,부산광역시 금정구 청룡동79-4(중앙대로),교통정보수집,1,100,360도전방면,30,2013-01,051-600-0200,35.275736,129.092502,2019-10-31
"부산광역시 교통정보서비스센터",,부산광역시 해운대구 우동1404(해운대해변로),교통정보수집,1,100,360도전방면,30,2013-01,051-600-0200,35.15955996,129.1437034,2019-10-31
"부산광역시 교통정보서비스센터",,부산광역시 해운대구 재송동831-3(고분로),교통정보수집,1,100,360도전방면,30,2013-01,051-600-0200,35.184275,129.1187133,2019-10-31
"부산광역시 교통정보서비스센터",,부산광역시 북구 만덕동 734(고분로),교통정보수집,1,100,360도전방면,30,2013-01,051-600-0200,35.2135809,129.026555,2019-10-31
"부산광역시 교통정보서비스센터",,부산광역시 사상구 덕포동785-5(백양대로),교통정보수집,1,100,360도전방면,30,2013-01,051-600-0200,35.17181323,128.9883528,2019-10-31
"부산광역시 교통정보서비스센터",,부산광역시 사하구 다대동 1500-12(다대로),교통정보수집,1,200,360도전방면,30,2012-06,051-600-0200,35.06737015,128.9548703,2019-10-31
"부산광역시 교통정보서비스센터",,부산광역시 사하구 괴정동1125-1(낙동대로),교통정보수집,1,100,360도전방면,30,2013-01,051-600-0200,35.10019289,128.9803218,2019-10-31
"부산광역시 교통정보서비스센터",,부산광역시 서구 암남동 95-3(충무대로),교통정보수집,1,100,360도전방면,30,2013-01,051-600-0200,35.0800322,129.0223615,2019-10-31
"부산광역시 교통정보서비스센터",,부산광역시 동구 좌천동 68(충장대로),교통정보수집,1,100,360도전방면,30,2013-01,051-600-0200,35.1268578,129.0548942,2019-10-31
"부산광역시 교통정보서비스센터",,부산광역시 사하구 구평동113-13(을숙도대로),교통정보수집,1,100,360도전방면,30,2013-01,051-600-0200,35.0847276,128.9839115,2019-10-31
"부산광역시 교통정보서비스센터",,부산광역시 강서구 성북동 36-2(국지도58호선),교통정보수집,1,100,360도전방면,30,2013-01,051-600-0200,35.0644367,128.8333934,2019-10-31
"부산광역시 교통정보서비스센터",,부산광역시 부산진구 초읍동 292-1(새싹로),교통정보수집,1,130,360도전방면,30,2014-11,051-600-0200,35.181839,129.046875,2019-10-31
"부산광역시 교통정보서비스센터",,부산광역시 부산진구 초읍동 294(월드컵대로),교통정보수집,1,130,360도전방면,30,2014-11,051-600-0200,35.181631,129.048935,2019-10-31
"부산광역시 교통정보서비스센터",,부산광역시 부산진구 부암동 666-16(시민공원로),교통정보수집,1,130,360도전방면,30,2014-11,051-600-0200,35.162819,129.0531867,2019-10-31
"부산광역시 교통정보서비스센터",,부산광역시 연제구 연산동 333-28(고분로),교통정보수집,1,130,360도전방면,30,2014-11,051-600-0200,35.185594,129.087371,2019-10-31
"부산광역시 교통정보서비스센터",,부산광역시 강서구 성북동 1512,교통정보수집,1,200,360도전방면,30,2016-12,051-600-0200,35.08317837,128.8347771,2019-10-31
"부산광역시 교통정보서비스센터",,부산광역시 북구 구포동 1157-1(강변대로),교통정보수집,1,130,360도전방면,30,2014-11,051-600-0200,35.20992197,129.0001654,2019-10-31
"부산광역시 교통정보서비스센터",,부산광역시 북구 화명동 2253(서낙동로),교통정보수집,1,130,360도전방면,30,2014-11,051-600-0200,35.235577,129.0080921,2019-10-31
"부산광역시 교통정보서비스센터",,부산광역시 북구 화명동 1718(서낙동로),교통정보수집,1,130,360도전방면,30,2014-11,051-600-0200,35.235095,128.995092,2019-10-31
"부산광역시 교통정보서비스센터",,부산광역시 북구 화명동 2273(금곡대로),교통정보수집,1,130,360도전방면,30,2014-11,051-600-0200,35.23516856,129.0130165,2019-10-31
"부산광역시 교통정보서비스센터",,부산광역시 강서구 녹산동 349-1(낙동남로),교통정보수집,1,130,360도전방면,30,2014-11,051-600-0200,35.112831,128.885003,2019-10-31
"부산광역시 교통정보서비스센터",,부산광역시 강서구 구랑동 1146-65(과학산단로),교통정보수집,1,130,360도전방면,30,2014-11,051-600-0200,35.132834,128.861057,2019-10-31
"부산광역시 교통정보서비스센터",,부산광역시 해운대구 좌동 1469(양운로),교통정보수집,1,130,360도전방면,30,2014-11,051-600-0200,35.1718685,129.1742232,2019-10-31
"부산광역시 교통정보서비스센터",,부산광역시 동래구 안락동 142-25(충렬대로),교통정보수집,1,200,360도전방면,30,2017-08,051-600-0200,35.191207,129.107259,2019-10-31
"부산광역시 교통정보서비스센터",,부산광역시 금정구 금사동 105-16(반송로),교통정보수집,1,41,360도전방면,30,2010-10,051-600-0200,35.21422275,129.1087064,2019-10-31
"부산광역시 교통정보서비스센터",,부산광역시 영도구 영선동 67-9(영선길),교통정보수집,1,41,360도전방면,30,2010-10,051-600-0200,35.08554552,129.0408531,2019-10-31
"부산광역시 교통정보서비스센터",,부산광역시 동구 범일동 12-3(중앙대로),교통정보수집,1,41,360도전방면,30,2010-10,051-600-0200,35.14183329,129.0559917,2019-10-31
"부산광역시 교통정보서비스센터",,부산광역시 부산진구 전포동 675-1(서전로),교통정보수집,1,200,360도전방면,30,2017-08,051-600-0200,35.15738846,129.0652985,2019-10-31
"부산광역시 교통정보서비스센터",,부산광역시 부산진구 개금동 468(가야대로),교통정보수집,1,41,360도전방면,30,2010-10,051-600-0200,35.15482749,129.0218069,2019-10-31
"부산광역시 교통정보서비스센터",,부산광역시 수영구 광안동 485-13(수영로),교통정보수집,1,41,360도전방면,30,2010-10,051-600-0200,35.1573686,129.1130005,2019-10-31
"부산광역시 교통정보서비스센터",,부산광역시 남구 용당동 168-35(신선로),교통정보수집,1,41,360도전방면,30,2010-10,051-600-0200,35.1105403,129.0932645,2019-10-31
"부산광역시 교통정보서비스센터",,부산광역시 남구 감만동 84-1(8부두로),교통정보수집,1,41,360도전방면,30,2010-10,051-600-0200,35.11889502,129.0804564,2019-10-31
"부산광역시 교통정보서비스센터",,부산광역시 해운대구 중동 1783-1(해운대로),교통정보수집,1,41,360도전방면,30,2010-10,051-600-0200,35.1666536,129.1686119,2019-10-31
"부산광역시 교통정보서비스센터",,부산광역시 해운대구 우동 1524(센텀남대로),교통정보수집,1,41,360도전방면,30,2010-10,051-600-0200,35.16927985,129.1323726,2019-10-31
"부산광역시 교통정보서비스센터",,부산광역시 기장군 기장읍 279-11(기장대로),교통정보수집,1,200,360도전방면,30,2010-10,051-600-0200,35.235939,129.217821,2019-10-31
"부산광역시 교통정보서비스센터",,부산광역시 북구 구포동 959-1(낙동분로),교통정보수집,1,41,360도전방면,30,2010-10,051-600-0200,35.202661,128.997953,2019-10-31
"부산광역시 교통정보서비스센터",,부산광역시 북구 화명동 2184-6(금곡대로),교통정보수집,1,41,360도전방면,30,2010-10,051-600-0200,35.228612,129.0126358,2019-10-31
"부산광역시 교통정보서비스센터",,부산광역시 사하구 신평동 659-1(을숙도대로),교통정보수집,1,41,360도전방면,30,2010-10,051-600-0200,35.085774,128.951673,2019-10-31
"부산광역시 교통정보서비스센터",,부산광역시 연제구 거제동 449-2(거제대로),교통정보수집,1,41,360도전방면,30,2010-10,051-600-0200,35.188526,129.074058,2019-10-31
"부산광역시 교통정보서비스센터",,부산광역시 강서구 명지동 3270(르노삼성대로),교통정보수집,1,41,360도전방면,30,2010-10,051-600-0200,35.08879599,128.9037776,2019-10-31
"부산광역시 교통정보서비스센터",,부산광역시 강서구 대저1동 2191-1(낙동북로),교통정보수집,1,41,360도전방면,30,2010-10,051-600-0200,35.2111692,128.9739918,2019-10-31
"부산광역시 교통정보서비스센터",,부산광역시 강서구 대저1동 2539-8(공항로),교통정보수집,1,41,360도전방면,30,2010-10,051-600-0200,35.20968574,128.9845715,2019-10-31
"부산광역시 교통정보서비스센터",,부산광역시 강서구 대저1동 1-8(남해고속도로10),교통정보수집,1,41,360도전방면,30,2010-10,051-600-0200,35.21728531,128.9900458,2019-10-31
"부산광역시 교통정보서비스센터",,부산광역시 강서구 생곡동 1474-1(가락대로),교통정보수집,1,41,360도전방면,30,2010-10,051-600-0200,35.1412821,128.8742981,2019-10-31
"부산광역시 교통정보서비스센터",,부산광역시 부산진구 당감동 614-17(관문대로),교통정보수집,1,200,360도전방면,30,2018-07,051-600-0200,35.16369728,129.030326,2019-10-31
"부산광역시 교통정보서비스센터",,부산광역시 해운대구 송정동 451,교통정보수집,1,200,360도전방면,30,2014-12,051-600-0200,35.1837352,129.2016166,2019-10-31
"부산광역시 교통정보서비스센터",,부산광역시 기장군 기장읍 내리 251-19,교통정보수집,1,200,360도전방면,30,2014-12,051-600-0200,35.1992949,129.2066646,2019-10-31
"부산광역시 교통정보서비스센터",,부산광역시 기장군 기장읍 당사리 29-1,교통정보수집,1,200,360도전방면,30,2014-12,051-600-0200,35.1900911,129.2130241,2019-10-31
"부산광역시 교통정보서비스센터",,부산광역시 기장군 기장읍 연화리 420-2,교통정보수집,1,200,360도전방면,30,2014-12,051-600-0200,35.2113728,129.222216,2019-10-31
"부산광역시 교통정보서비스센터",,부산광역시 남구 문현동 687,교통정보수집,1,200,360도전방면,30,2015-12,051-600-0200,35.14922049,129.0652709,2019-10-31
"부산광역시 교통정보서비스센터",,부산광역시 강서구 봉림동 767-29(남해고속104),교통정보수집,1,100,360도전방면,30,2010-10,051-600-0200,35.164975,128.896381,2019-10-31
"부산광역시 교통정보서비스센터",,부산광역시 강서구 송정동 1201,교통정보수집,1,100,360도전방면,30,2010-10,051-600-0200,35.1840504,129.2006259,2019-10-31
"부산광역시 교통정보서비스센터",,부산광역시 강서구 녹산동 793(낙)동남로,교통정보수집,1,200,360도전방면,30,2015-08,051-600-0200,35.11274336,128.8724619,2019-10-31
"부산광역시 교통정보서비스센터",,부산광역시 강서구 송정동1707-2(녹산산업대로),교통정보수집,1,100,360도전방면,30,2010-06,051-600-0200,35.08846727,128.840058,2019-10-31
"부산광역시 교통정보서비스센터",,부산광역시 해운대구 좌동 1370,교통정보수집,1,200,360도전방면,30,2010-06,051-600-0200,35.178367,129.1657939,2019-10-31
"부산광역시 교통정보서비스센터",,부산광역시 부산진구 개금동 60-1,교통정보수집,1,100,360도전방면,30,2010-10,051-600-0200,35.159204,129.0316263,2019-10-31
"부산광역시 교통정보서비스센터",,부산광역시 동래구 온천동(구만덕로) 1139,교통정보수집,1,100,360도전방면,30,2010-10,051-600-0200,35.2108754,129.0658741,2019-10-31
"부산광역시 교통정보서비스센터",,부산광역시 북구 만덕동2동(구만덕로) 454,교통정보수집,1,100,360도전방면,30,2010-10,051-600-0200,35.2152845,129.0436868,2019-10-31
"부산광역시 교통정보서비스센터",,부산광역시 동래구 온천동 484-2,교통정보수집,1,200,360도전방면,30,2013-01,051-600-0200,35.2117705,129.0786105,2019-10-31
"부산광역시 교통정보서비스센터",,부산광역시 동래구 온천동 484-2,교통정보수집,1,200,360도전방면,30,2013-01,051-600-0200,35.2117705,129.0786105,2019-10-31
"부산광역시 교통정보서비스센터",,부산광역시 동래구 온천동 484-2,교통정보수집,1,200,360도전방면,30,2013-01,051-600-0200,35.2117705,129.0786105,2019-10-31
"부산광역시 교통정보서비스센터",,부산광역시 동래구 온천동 484-2,교통정보수집,1,200,360도전방면,30,2013-01,051-600-0200,35.2117705,129.0786105,2019-10-31
"부산광역시 교통정보서비스센터",,부산광역시 동래구 온천동 484-2,교통정보수집,1,200,360도전방면,30,2013-01,051-600-0200,35.2117705,129.0786105,2019-10-31
"부산광역시 교통정보서비스센터",,부산광역시 해운대구 재송동 339-3,교통정보수집,1,200,360도전방면,30,2013-01,051-600-0200,35.1860599,129.0817568,2019-10-31
"부산광역시 교통정보서비스센터",,부산광역시 해운대구 재송동 923-3,교통정보수집,1,200,360도전방면,30,2013-01,051-600-0200,35.1860599,129.0817568,2019-10-31
"부산광역시 교통정보서비스센터",,부산광역시 해운대구 재송동 958-3,교통정보수집,1,200,360도전방면,30,2013-01,051-600-0200,35.1860599,129.0817568,2019-10-31
"부산광역시 교통정보서비스센터",,부산광역시 해운대구 재송동 958-3,교통정보수집,1,200,360도전방면,30,2013-01,051-600-0200,35.1860599,129.0817568,2019-10-31
"부산광역시 교통정보서비스센터",,부산광역시 동래구 안락동 268-5,교통정보수집,1,200,360도전방면,30,2013-01,051-600-0200,35.1860599,129.0817568,2019-10-31
"부산광역시 교통정보서비스센터",,부산광역시 동래구 안락동 549-2,교통정보수집,1,200,360도전방면,30,2013-01,051-600-0200,35.1860599,129.0817568,2019-10-31
"부산광역시 교통정보서비스센터",,부산광역시 동래구 낙민동 231,교통정보수집,1,200,360도전방면,30,2013-01,051-600-0200,35.1576854,129.0591753,2019-10-31
"부산광역시 교통정보서비스센터",,부산광역시 동래구 안락동 473,교통정보수집,1,200,360도전방면,30,2013-01,051-600-0200,35.19969107,129.097537,2019-10-31
"부산광역시 교통정보서비스센터",,부산광역시 동래구 명륜동 755,교통정보수집,1,200,360도전방면,30,2013-01,051-600-0200,35.1576854,129.0591753,2019-10-31
"부산광역시 교통정보서비스센터",,부산광역시 동래구 수안동,교통정보수집,1,200,360도전방면,30,2013-01,051-600-0200,35.1576854,129.0591753,2019-10-31
"부산광역시 교통정보서비스센터",,부산광역시 동래구 안락동,교통정보수집,1,200,360도전방면,30,2013-01,051-600-0200,35.1576854,129.0591753,2019-10-31
"부산광역시 교통정보서비스센터",,부산광역시 연제구 연산동 2166-3,교통정보수집,1,200,360도전방면,30,2013-01,051-600-0200,35.1576854,129.0591753,2019-10-31
"부산광역시 교통정보서비스센터",,부산광역시 해운대구 중동 1439-32,교통정보수집,1,200,360도전방면,30,2017-10,051-600-0200,35.1597335,129.1621345,2019-10-31
"부산광역시 교통정보서비스센터",,부산광역시 부산진구 부전2동 503-15가야대로,교통정보수집,1,200,360도전방면,30,2017-11,051-600-0200,35.15717855,129.0567513,2019-10-31
"부산광역시 교통정보서비스센터",,부산광역시 부산진구 부전2동 503-15가야대로,교통정보수집,1,200,360도전방면,30,2017-11,051-600-0200,35.15717855,129.0567513,2019-10-31
"부산광역시 교통정보서비스센터",부산광역시 남구 진남로 168,부산광역시 남구 진남로 168,교통정보수집,1,200,360도전방면,30,2017-12,051-600-0200,35.14173997,129.0791229,2019-10-31
"부산광역시 교통정보서비스센터",,부산광역시 강서구 강동동 110-17,기타,1,200,횡단보도,30,2015-03,051-600-0200,35.2177711,128.9376685,2019-10-31
"부산광역시 교통정보서비스센터",,부산광역시 강서구 녹산동 247-7,기타,1,200,횡단보도,30,2015-03,051-600-0200,35.1142589,128.8860816,2019-10-31
"부산광역시 교통정보서비스센터",,부산광역시 기장군 기장읍 교리 221,기타,1,200,횡단보도,30,2015-03,051-600-0200,35.2543467,129.2167121,2019-10-31
"부산광역시 교통정보서비스센터",,부산광역시 동래구 온천동 1608-1,기타,1,200,횡단보도,30,2015-03,051-600-0200,35.2026592,129.0602401,2019-10-31
"부산광역시 교통정보서비스센터",,부산광역시 북구 덕천동 474,기타,1,200,횡단보도,30,2015-03,051-600-0200,35.2131917,129.0242824,2019-10-31
"부산광역시 교통정보서비스센터",,부산광역시 사상구 감전동 174,기타,1,200,횡단보도,30,2015-03,051-600-0200,35.15553701,128.991266,2019-10-31
"부산광역시 교통정보서비스센터",,부산광역시 사하구 괴정동 430-12,기타,1,200,횡단보도,30,2015-03,051-600-0200,35.1011517,128.9956793,2019-10-31
